City_ID,City,Country,Lat,Lng,Max Temp,Humidity,Cloudiness,Wind Speed,Current description
0,Kovernino,RU,57.1253,43.8142,70.12,62,98,4.59,light rain
1,Rikitea,PF,-23.1203,-134.9692,69.12,61,100,23.87,overcast clouds
2,Rawson,AR,-43.3002,-65.1023,64.02,27,12,11.74,few clouds
3,Ushuaia,AR,-54.8,-68.3,44.26,70,75,6.91,broken clouds
4,Wanning,CN,18.8003,110.3967,80.91,88,100,6.89,overcast clouds
5,Dikson,RU,73.5069,80.5464,39.69,98,100,5.82,overcast clouds
6,Ketchikan,US,55.3422,-131.6461,61.27,82,90,6.91,overcast clouds
7,Busselton,AU,-33.65,115.3333,44.1,75,77,7.99,broken clouds
8,Arraial Do Cabo,BR,-22.9661,-42.0278,75.16,64,20,12.66,few clouds
9,Fortuna,US,40.5982,-124.1573,63.52,88,1,5.75,clear sky
10,Chuy,UY,-33.6971,-53.4616,57.78,72,9,5.61,clear sky
11,San Felipe,VE,10.3399,-68.7425,88.84,48,57,7.34,broken clouds
12,Kruisfontein,ZA,-34.0033,24.7314,55.89,85,50,20.94,scattered clouds
13,Salinas,US,36.6777,-121.6555,69.57,77,90,0.0,overcast clouds
14,Esperance,AU,-33.8667,121.9,49.84,58,79,27.51,broken clouds
15,Vostok,RU,46.4856,135.8833,61.97,95,26,4.36,scattered clouds
16,Vondrozo,MG,-22.8167,47.2833,57.31,98,29,0.87,scattered clouds
17,Vaini,TO,-21.2,-175.2,69.96,83,20,21.85,light rain
18,Bluff,NZ,-46.6,168.3333,39.79,90,15,8.77,few clouds
19,Sabang,ID,5.8933,95.3214,82.17,75,97,26.11,overcast clouds
20,Bethel,US,41.3712,-73.414,77.85,72,20,9.22,few clouds
21,Hithadhoo,MV,-0.6,73.0833,80.82,73,100,4.32,overcast clouds
22,Palmer,US,42.1584,-72.3287,79.97,55,75,5.01,broken clouds
23,Mananjary,MG,-21.2167,48.3333,66.52,85,5,4.5,clear sky
24,Necochea,AR,-38.5473,-58.7368,52.03,50,0,0.56,clear sky
25,Atuona,PF,-9.8,-139.0333,76.64,73,35,13.62,scattered clouds
26,Nara,JP,34.6851,135.8049,81.68,94,36,2.37,scattered clouds
27,Hilo,US,19.7297,-155.09,75.61,90,90,3.44,light rain
28,Mount Isa,AU,-20.7333,139.5,64.17,48,48,0.0,scattered clouds
29,Tiksi,RU,71.6872,128.8694,44.67,79,5,6.96,clear sky
30,Cockburn Town,TC,21.4612,-71.1419,85.96,66,40,13.8,scattered clouds
31,Jamestown,US,42.097,-79.2353,65.79,93,90,1.01,thunderstorm with rain
32,Port Alfred,ZA,-33.5906,26.891,62.11,70,47,24.9,scattered clouds
33,Darnah,LY,32.767,22.6367,82.67,66,0,13.71,clear sky
34,Guerrero Negro,MX,27.9769,-114.0611,82.87,54,1,7.47,clear sky
35,Provideniya,RU,64.3833,-173.3,42.19,77,100,14.54,overcast clouds
36,San Cristobal,VE,7.7669,-72.225,82.58,54,52,9.93,broken clouds
37,Kaoma,ZM,-14.7833,24.8,62.31,40,2,5.88,clear sky
38,Arnia,IN,32.5167,74.8,83.79,64,48,5.08,scattered clouds
39,Choctaw,US,35.4976,-97.2689,80.26,86,20,3.0,few clouds
40,Punta Arenas,CL,-53.15,-70.9167,44.71,76,75,17.27,broken clouds
41,Aykhal,RU,66.0,111.5,61.56,47,12,3.18,few clouds
42,Ust-Kan,RU,50.9276,84.761,51.22,81,3,2.71,clear sky
43,Lompoc,US,34.6391,-120.4579,72.93,75,1,3.44,clear sky
44,Puerto Ayora,EC,-0.7393,-90.3518,76.96,90,71,8.99,broken clouds
45,Georgetown,MY,5.4112,100.3354,77.9,91,40,2.3,scattered clouds
46,Khao Yoi,TH,13.2403,99.8243,83.89,67,99,7.09,moderate rain
47,Wundanyi,KE,-3.4019,38.364,59.74,71,65,9.42,broken clouds
48,Albany,US,42.6001,-73.9662,77.27,61,77,5.99,broken clouds
49,Chapais,CA,49.7834,-74.8492,64.18,59,86,8.03,overcast clouds
50,Toledo,ES,39.8333,-4.0,83.52,17,95,9.44,overcast clouds
51,Bredasdorp,ZA,-34.5322,20.0403,58.32,67,66,14.97,broken clouds
52,Carnarvon,AU,-24.8667,113.6333,55.47,60,22,10.36,few clouds
53,Belyy Yar,RU,53.6039,91.3903,62.49,77,0,2.24,clear sky
54,West Bay,KY,19.3667,-81.4167,90.07,76,20,3.0,few clouds
55,Vanimo,PG,-2.6741,141.3028,77.41,90,48,4.5,heavy intensity rain
56,Dondo,MZ,-19.6094,34.7431,65.71,81,0,5.91,clear sky
57,Pringsewu,ID,-5.3582,104.9744,73.29,97,35,3.98,scattered clouds
58,Codrington,AU,-38.2667,141.9667,43.3,91,25,12.55,scattered clouds
59,Saldanha,ZA,-33.0117,17.9442,55.45,91,45,9.69,scattered clouds
60,Kailua,US,21.4022,-157.7394,80.58,69,20,11.5,few clouds
61,Zalantun,CN,48.0,122.7167,56.55,85,94,5.99,overcast clouds
62,Kapaa,US,22.0752,-159.319,80.92,80,90,5.99,light rain
63,Cap-Chat,CA,49.1001,-66.6821,62.6,67,60,19.57,broken clouds
64,Mamit,IN,23.9333,92.4833,69.93,96,100,3.49,light rain
65,Saint George,US,37.1041,-113.5841,91.63,41,1,1.99,clear sky
66,Smidovich,RU,48.6,133.8167,62.33,72,91,11.5,overcast clouds
67,Wadi,IN,17.0667,76.9833,75.79,77,76,17.81,broken clouds
68,Kloulklubed,PW,7.0419,134.2556,84.11,76,100,13.91,overcast clouds
69,Zhigansk,RU,66.7697,123.3711,62.08,66,49,10.54,scattered clouds
70,Carutapera,BR,-1.195,-46.02,83.26,68,12,7.2,few clouds
71,Cape Town,ZA,-33.9258,18.4232,59.11,71,20,1.01,few clouds
72,Vilhena,BR,-12.7406,-60.1458,88.02,25,0,9.22,clear sky
73,Melilla,ES,35.2937,-2.9383,86.2,29,0,12.66,clear sky
74,Aklavik,CA,68.2191,-135.0107,77.0,47,40,5.75,haze
75,Sao Filipe,CV,14.8961,-24.4956,75.7,78,42,5.99,scattered clouds
76,Ancud,CL,-41.8697,-73.8203,51.33,59,38,3.98,scattered clouds
77,Mar Del Plata,AR,-38.0023,-57.5575,51.82,29,0,4.0,clear sky
78,Macklin,CA,52.3334,-109.9348,86.34,22,62,10.2,broken clouds
79,Tuatapere,NZ,-46.1333,167.6833,39.81,94,23,6.06,light rain
80,Grindavik,IS,63.8424,-22.4338,55.35,94,75,2.3,broken clouds
81,Cabo San Lucas,MX,22.8909,-109.9124,96.51,67,20,3.0,few clouds
82,Pisco,PE,-13.7,-76.2167,67.01,77,90,8.05,haze
83,Lima,PE,-12.0432,-77.0282,66.9,77,90,5.75,overcast clouds
84,Mogadishu,SO,2.0371,45.3438,75.96,85,99,20.56,light rain
85,Davidson,US,36.1501,-86.7833,79.84,77,90,8.99,haze
86,Yuncheng,CN,35.0231,110.9928,78.94,80,4,5.93,clear sky
87,Barra Da Estiva,BR,-13.6261,-41.3269,71.87,37,74,14.56,broken clouds
88,Kiunga,PG,-6.1219,141.2906,73.2,95,89,2.64,overcast clouds
89,Matay,EG,28.419,30.7792,96.8,12,3,7.78,clear sky
90,Sao Joao Da Barra,BR,-21.6403,-41.0511,71.69,55,85,10.45,overcast clouds
91,Nikolskoye,RU,59.7035,30.7861,65.39,67,53,11.39,broken clouds
92,Daru,PG,-9.0763,143.2092,75.61,76,36,14.74,scattered clouds
93,Avarua,CK,-21.2078,-159.775,77.05,78,75,17.27,broken clouds
94,Sitka,US,57.0531,-135.33,60.69,88,75,0.0,mist
95,Qaanaaq,GL,77.484,-69.3632,43.14,79,93,0.94,overcast clouds
96,Mataura,NZ,-46.1927,168.8643,39.47,98,31,3.6,scattered clouds
97,Jacareacanga,BR,-6.2222,-57.7528,99.9,20,16,4.32,few clouds
98,Samarai,PG,-10.6167,150.6667,75.24,70,89,8.05,overcast clouds
99,Port Elizabeth,ZA,-33.918,25.5701,59.29,82,0,29.93,clear sky
100,Codajas,BR,-3.8367,-62.0569,94.78,27,42,4.76,scattered clouds
101,Ilulissat,GL,69.2167,-51.1,59.02,38,0,4.61,clear sky
102,Tazovskiy,RU,67.4667,78.7,52.9,72,99,9.71,overcast clouds
103,Vardo,NO,70.3705,31.1107,55.6,93,0,6.91,light rain
104,Katsuura,JP,35.1333,140.3,80.71,88,21,7.54,few clouds
105,Torres,BR,-29.3353,-49.7269,69.82,71,10,8.14,clear sky
106,Baffa,PK,34.4378,73.2194,73.69,83,4,4.88,clear sky
107,Yellowknife,CA,62.456,-114.3525,83.32,36,20,3.0,few clouds
108,Hermanus,ZA,-34.4187,19.2345,57.9,81,42,8.61,scattered clouds
109,East London,ZA,-33.0153,27.9116,58.14,88,0,11.5,clear sky
110,Clyde River,CA,70.4692,-68.5914,43.03,87,90,13.8,overcast clouds
111,Cravo Norte,CO,6.3017,-70.2041,77.07,83,86,6.51,overcast clouds
112,Oranjemund,NA,-28.55,16.4333,59.54,65,4,10.36,clear sky
113,Korla,CN,41.7597,86.1469,78.84,16,95,4.21,overcast clouds
114,Mitsamiouli,KM,-11.3847,43.2844,76.75,71,16,3.85,few clouds
115,Pevek,RU,69.7008,170.3133,32.86,94,100,12.68,overcast clouds
116,Tambura,SS,5.6,27.4667,69.12,96,90,5.5,moderate rain
117,Alice Springs,AU,-23.7,133.8833,65.75,39,86,10.36,overcast clouds
118,Laukaa,RU,58.7372,29.8453,66.38,66,38,6.42,scattered clouds
119,Sakaraha,MG,-22.9,44.5333,61.9,67,5,4.97,clear sky
120,Olafsvik,IS,64.8945,-23.7142,53.71,92,100,1.97,overcast clouds
121,Chabahar,IR,25.2919,60.643,84.9,84,23,11.01,few clouds
122,Octeville,FR,49.6261,-1.6435,63.09,77,90,12.66,overcast clouds
123,Longyearbyen,SJ,78.2186,15.6401,48.04,66,75,12.66,broken clouds
124,Shar,KZ,49.5886,81.0453,72.3,32,0,7.16,clear sky
125,Sur,OM,22.5667,59.5289,92.34,51,93,16.02,overcast clouds
126,Hobart,AU,-42.8794,147.3294,39.06,85,7,1.01,clear sky
127,Owando,CG,-0.4819,15.8999,81.7,45,100,2.04,overcast clouds
128,Puteyets,RU,65.1716,57.091,56.23,96,71,4.79,broken clouds
129,Obidos,BR,-1.9175,-55.5181,89.69,48,98,3.04,overcast clouds
130,New Norfolk,AU,-42.7826,147.0587,37.71,87,15,2.06,few clouds
131,Upernavik,GL,72.7868,-56.1549,45.64,71,93,10.58,overcast clouds
132,Bowen,AU,-20.0167,148.2333,61.02,77,11,4.47,few clouds
133,Pangnirtung,CA,66.1451,-65.7125,48.2,87,90,8.05,overcast clouds
134,Tuktoyaktuk,CA,69.4541,-133.0374,69.8,60,75,16.11,broken clouds
135,Mokolo,CM,10.7398,13.8019,72.91,84,99,4.45,overcast clouds
136,Vryburg,ZA,-26.9566,24.7284,56.1,23,2,9.4,clear sky
137,Saint-Philippe,RE,-21.3585,55.7679,67.59,75,33,12.48,scattered clouds
138,Souillac,MU,-20.5167,57.5167,71.98,68,75,17.27,light rain
139,Avera,US,33.194,-82.5271,94.91,36,44,12.8,scattered clouds
140,Russell,US,32.3502,-85.1999,92.48,58,20,6.91,few clouds
141,Lebu,CL,-37.6167,-73.65,55.17,64,4,16.75,clear sky
142,Ontario,US,34.0633,-117.6509,101.41,33,20,3.0,few clouds
143,Maturin,VE,9.75,-63.1767,85.57,67,31,6.51,scattered clouds
144,Nichinan,JP,31.6,131.3667,77.76,91,77,3.94,broken clouds
145,Narbonne,FR,43.0833,2.8333,75.16,31,81,14.27,broken clouds
146,Ribeira Grande,PT,38.5167,-28.7,73.8,88,75,18.41,broken clouds
147,Brae,GB,60.3964,-1.353,51.71,78,92,15.55,overcast clouds
148,Tautira,PF,-17.7333,-149.15,69.82,61,74,9.08,broken clouds
149,Bilibino,RU,68.0546,166.4372,33.78,75,85,6.93,overcast clouds
150,Huoqiu,CN,32.3394,116.2694,79.72,83,2,5.1,light rain
151,Luorong,CN,24.4058,109.6086,79.29,83,97,2.44,overcast clouds
152,Pak Chong,TH,14.708,101.4161,75.61,82,93,10.33,overcast clouds
153,Kvarkeno,RU,52.0833,59.725,73.26,61,41,6.58,scattered clouds
154,Cururupu,BR,-1.8283,-44.8683,85.93,54,56,4.72,broken clouds
155,Geraldton,AU,-28.7667,114.6,46.81,93,90,8.05,overcast clouds
156,Marawi,PH,7.9986,124.2928,72.64,94,92,3.49,overcast clouds
157,Broome,US,42.2506,-75.833,79.47,58,40,3.0,scattered clouds
158,Puerto Escondido,MX,15.85,-97.0667,88.63,62,40,5.75,scattered clouds
159,College,US,64.8569,-147.8028,66.09,74,75,3.44,broken clouds
160,Port Lincoln,AU,-34.7333,135.8667,51.93,49,3,21.03,clear sky
161,Kaitangata,NZ,-46.2817,169.8464,43.88,97,48,4.76,scattered clouds
162,Tecoanapa,MX,16.5167,-98.75,87.8,62,78,4.05,broken clouds
163,Bengkulu,ID,-3.8004,102.2655,75.02,91,84,3.71,broken clouds
164,Izmir,TR,38.4622,27.0923,101.64,38,0,6.91,clear sky
165,Turukhansk,RU,65.8167,87.9833,54.3,87,25,6.51,scattered clouds
166,Beloha,MG,-25.1667,45.05,68.32,69,0,11.1,clear sky
167,Moindou,NC,-21.6924,165.677,55.35,66,63,7.78,broken clouds
168,Gizo,SB,-8.103,156.8419,79.68,82,63,12.75,moderate rain
169,Sambava,MG,-14.2667,50.1667,69.06,91,100,13.31,light rain
170,Valparaiso,CL,-33.0393,-71.6273,71.83,52,0,3.44,clear sky
171,Cherskiy,RU,68.75,161.3,34.86,86,68,16.26,broken clouds
172,Sorland,NO,67.667,12.6934,49.86,73,51,12.97,broken clouds
173,Sibolga,ID,1.7427,98.7792,74.52,89,99,3.87,overcast clouds
174,Lourdes,FR,43.1,-0.05,73.94,72,90,11.5,overcast clouds
175,Butaritari,KI,3.0707,172.7902,82.67,69,48,8.81,scattered clouds
176,Teya,RU,60.3778,92.6267,59.0,72,100,2.3,overcast clouds
177,Castro,BR,-24.7911,-50.0119,49.5,83,100,3.83,overcast clouds
178,Velyka Bahachka,UA,49.7912,33.7226,81.66,39,32,5.82,scattered clouds
179,Big Spring,US,32.2504,-101.4787,82.27,61,75,14.97,thunderstorm
180,Hambantota,LK,6.1241,81.1185,80.33,80,100,16.75,overcast clouds
181,Ostrovnoy,RU,68.0531,39.5131,51.06,78,36,7.25,scattered clouds
182,Bonthe,SL,7.5264,-12.505,77.49,83,100,11.39,light rain
183,Barrow,US,71.2906,-156.7887,51.82,85,90,20.71,overcast clouds
184,Qasigiannguit,GL,68.8193,-51.1922,59.25,57,36,3.91,scattered clouds
185,Port-Gentil,GA,-0.7193,8.7815,78.76,78,75,10.36,broken clouds
186,Mayo,US,38.8876,-76.5119,78.03,87,90,4.0,overcast clouds
187,Luderitz,NA,-26.6481,15.1594,68.4,35,0,11.5,clear sky
188,Ajdabiya,LY,30.7554,20.2263,82.35,64,0,9.24,clear sky
189,Gorontalo,ID,0.5412,123.0595,74.98,95,63,2.73,broken clouds
190,Waddan,LY,29.1614,16.139,97.32,9,0,11.5,clear sky
191,Rio Rancho,US,35.2334,-106.6645,80.51,52,1,1.99,clear sky
192,Haines Junction,CA,60.7522,-137.5108,60.75,59,76,4.61,broken clouds
193,Usinsk,RU,65.9939,57.5281,51.53,91,97,9.69,overcast clouds
194,Say,NE,13.1007,2.3689,91.96,51,72,15.05,broken clouds
195,Marechal Candido Rondon,BR,-24.5561,-54.0567,69.26,48,91,0.67,overcast clouds
196,Farsund,NO,58.0948,6.8047,61.95,81,47,7.27,scattered clouds
197,Hasaki,JP,35.7333,140.8333,77.4,89,1,6.91,clear sky
198,Faanui,PF,-16.4833,-151.75,77.56,67,76,14.36,broken clouds
199,Victoria,HK,22.2855,114.1577,85.32,88,100,1.99,light rain
200,Half Moon Bay,US,37.4636,-122.4286,77.05,72,40,1.01,scattered clouds
201,Charsadda,PK,34.1435,71.7317,84.81,59,37,5.57,scattered clouds
202,Bosobolo,CD,4.1833,19.9,70.93,92,100,0.49,overcast clouds
203,Qui Nhon,VN,13.7667,109.2333,85.62,66,100,12.88,overcast clouds
204,Buritizeiro,BR,-17.3511,-44.9622,81.37,30,1,5.08,clear sky
205,Broken Hill,AU,-31.95,141.4333,44.31,87,0,8.05,clear sky
206,Berdigestyakh,RU,62.0989,126.6992,60.87,63,96,4.09,overcast clouds
207,Tezu,IN,27.9167,96.1667,76.6,91,13,3.65,few clouds
208,Coquimbo,CL,-29.9533,-71.3436,60.53,72,0,9.22,clear sky
209,Iranshahr,IR,27.2025,60.6848,102.54,29,40,16.11,scattered clouds
210,Dunmore Town,BS,25.5,-76.65,83.07,76,7,10.11,clear sky
211,Benghazi,LY,32.1167,20.0667,84.04,66,0,14.14,clear sky
212,Ponta Do Sol,PT,32.6667,-17.1,78.71,72,26,4.14,scattered clouds
213,Caravelas,BR,-17.7125,-39.2481,71.96,53,99,10.51,overcast clouds
214,Nouakchott,MR,18.0858,-15.9785,82.33,74,62,12.3,broken clouds
215,Poronaysk,RU,49.2167,143.1167,55.56,80,84,1.45,broken clouds
216,The Valley,AI,18.217,-63.0578,87.66,70,40,13.8,scattered clouds
217,Siguiri,GN,11.6667,-9.5,77.22,89,84,1.68,moderate rain
218,Batagay-Alyta,RU,67.8006,130.4114,53.89,67,1,1.57,clear sky
219,Nchelenge,ZM,-9.3451,28.734,70.47,53,10,2.62,clear sky
220,Te Anau,NZ,-45.4167,167.7167,41.47,94,61,2.64,broken clouds
221,Chokurdakh,RU,70.6333,147.9167,30.51,85,4,5.35,clear sky
222,Srednekolymsk,RU,67.45,153.6833,37.18,75,100,8.66,overcast clouds
223,Kasempa,ZM,-13.4584,25.8338,62.46,43,3,4.92,clear sky
224,Pemba,MZ,-12.974,40.5178,77.7,78,40,13.8,scattered clouds
225,Dukat,RU,62.55,155.55,31.78,98,100,5.14,snow
226,Isangel,VU,-19.55,169.2667,67.03,71,63,13.38,broken clouds
227,Kango,GA,0.1943,10.0951,78.31,73,99,6.62,overcast clouds
228,Kaduna,NG,10.5222,7.4383,69.73,96,87,6.38,overcast clouds
229,Vao,NC,-22.6667,167.4833,66.51,58,76,13.58,broken clouds
230,Khatanga,RU,71.9667,102.5,62.65,74,85,8.03,overcast clouds
231,Fort Morgan,US,40.2503,-103.8,77.74,50,1,5.75,clear sky
232,Constitucion,CL,-35.3333,-72.4167,63.1,47,1,7.67,clear sky
233,Wattegama,LK,6.7989,81.4808,79.74,69,100,6.2,overcast clouds
234,Asau,RO,46.4333,26.4,81.52,74,0,2.77,clear sky
235,Iqaluit,CA,63.7506,-68.5145,55.13,71,90,5.75,overcast clouds
236,Evensk,RU,61.95,159.2333,44.13,87,100,16.33,light rain
237,Uri,IN,34.0833,74.0333,68.77,93,27,0.38,scattered clouds
238,Leningradskiy,RU,69.3833,178.4167,35.58,96,100,15.5,light rain
239,Upington,ZA,-28.4478,21.2561,64.78,27,0,3.44,clear sky
240,Jacqueville,CI,5.2052,-4.4146,80.51,84,95,9.55,overcast clouds
241,Margate,GB,51.3813,1.3862,64.85,89,64,10.11,light rain
242,Mnogovershinnyy,RU,53.9353,139.9242,46.04,94,96,2.75,overcast clouds
243,Lorengau,PG,-2.0226,147.2712,81.64,78,24,9.44,few clouds
244,Viedma,AR,-40.8135,-62.9967,59.43,30,19,20.49,few clouds
245,Nouadhibou,MR,20.931,-17.0347,76.98,69,0,13.8,clear sky
246,Parsons,US,37.3403,-95.2611,80.15,53,48,11.77,scattered clouds
247,Along,IN,28.1667,94.7667,74.05,98,13,1.9,few clouds
248,Gat,IL,31.61,34.7642,87.4,53,0,5.28,clear sky
249,Puerto Leguizamo,CO,-0.1934,-74.7819,70.92,85,100,1.63,overcast clouds
250,San Patricio,US,28.017,-97.5169,95.09,39,71,9.64,broken clouds
251,Naryan-Mar,RU,67.6713,53.087,51.55,85,88,9.8,overcast clouds
252,Mabaruma,GY,8.2,-59.7833,84.16,79,13,4.07,few clouds
253,Bayan,CN,46.0833,127.4,65.34,98,100,5.14,overcast clouds
254,Acapulco,MX,16.8634,-99.8901,85.82,74,75,11.5,broken clouds
255,Tuyan,PH,6.0,125.2833,80.1,85,89,4.61,overcast clouds
256,Comodoro Rivadavia,AR,-45.8667,-67.5,62.46,20,0,25.32,clear sky
257,Richards Bay,ZA,-28.783,32.0377,64.49,80,71,6.08,broken clouds
258,Sao Joaquim,BR,-28.2939,-49.9317,56.98,46,29,4.32,scattered clouds
259,Mahebourg,MU,-20.4081,57.7,71.89,68,75,17.27,light rain
260,Kutum,SD,14.2,24.6667,83.98,44,32,8.75,scattered clouds
261,Mantua,IT,45.1667,10.7833,83.91,53,41,10.54,scattered clouds
262,Creel,MX,27.75,-107.6333,76.48,39,41,7.52,scattered clouds
263,Chiredzi,ZW,-21.05,31.6667,64.69,35,0,3.42,clear sky
264,Winneba,GH,5.3511,-0.6231,82.87,81,87,10.78,overcast clouds
265,Mancio Lima,BR,-7.6142,-72.8958,89.67,45,75,6.91,broken clouds
266,Nsanje,MW,-16.92,35.262,69.71,46,23,3.87,few clouds
267,Thompson,CA,55.7435,-97.8558,77.16,44,40,10.36,scattered clouds
268,Pozo Colorado,PY,-23.4923,-58.7972,77.0,23,53,6.38,light rain
269,Salinopolis,BR,-0.6136,-47.3561,83.34,69,32,10.54,scattered clouds
270,Morrope,PE,-6.5417,-80.0111,69.91,58,21,14.99,few clouds
271,Bambous Virieux,MU,-20.3428,57.7575,71.85,68,75,17.27,light rain
272,Tucuman,AR,-26.8241,-65.2226,68.0,26,0,4.61,clear sky
273,Stony Brook,US,40.9257,-73.1409,78.46,61,75,5.99,broken clouds
274,Zima,RU,53.9202,102.0442,55.69,96,100,9.42,light rain
275,Tukan,RU,53.8409,57.4552,63.32,65,82,1.79,broken clouds
276,Alofi,NU,-19.0595,-169.9187,75.09,88,63,14.97,broken clouds
277,Abu Dhabi,AE,24.4667,54.3667,96.91,49,0,4.61,clear sky
278,Ihosy,MG,-22.4,46.1167,56.95,96,17,6.4,few clouds
279,Den Helder,NL,52.9599,4.7593,64.98,71,75,11.5,broken clouds
280,Colares,PT,38.7992,-9.4469,74.88,72,40,7.0,scattered clouds
281,Trois-Rivieres,CA,46.3501,-72.5491,71.55,64,20,9.22,few clouds
282,Surab,PK,28.4914,66.2585,80.56,15,34,10.07,scattered clouds
283,Dunedin,NZ,-45.8742,170.5036,50.81,81,85,11.99,overcast clouds
284,Pacific Grove,US,36.6177,-121.9166,69.15,85,90,5.01,overcast clouds
285,Regina,CA,50.4501,-104.6178,86.0,34,40,0.0,haze
286,Hualmay,PE,-11.0964,-77.6139,68.02,70,34,10.65,scattered clouds
287,Norilsk,RU,69.3535,88.2027,50.95,93,87,4.52,overcast clouds
288,Vohibinany,MG,-17.35,49.0333,63.1,97,55,1.88,broken clouds
289,Fort Nelson,CA,58.8053,-122.7002,72.99,56,1,3.44,clear sky
290,Pavelets,RU,53.7883,39.246,78.58,51,96,5.19,overcast clouds
291,Ust-Nera,RU,64.5667,143.2,43.18,85,1,5.08,clear sky
292,Syracuse,IT,37.0881,15.2792,95.61,51,0,6.8,clear sky
293,Sola,VU,-13.8833,167.55,74.64,66,91,12.35,overcast clouds
294,Siverek,TR,37.755,39.3167,90.21,24,35,14.9,scattered clouds
295,Lowestoft,GB,52.4752,1.7516,62.85,67,65,11.07,broken clouds
296,Airai,TL,-8.9266,125.4092,55.96,85,80,2.66,broken clouds
297,Abalak,RU,58.1286,68.5944,63.0,97,44,4.32,light rain
298,Datong,CN,40.0936,113.2914,61.86,65,54,5.66,broken clouds
299,Adrar,MR,20.5022,-10.0711,105.46,16,60,2.51,broken clouds
300,Vicente Guerrero,MX,19.1194,-98.1708,69.19,44,6,2.75,clear sky
301,Ciudad Bolivar,VE,8.1222,-63.5497,84.33,67,40,10.18,scattered clouds
302,Temirtau,KZ,50.0544,72.9483,66.45,51,7,2.53,clear sky
303,Ornskoldsvik,SE,63.2909,18.7153,63.55,55,20,9.22,few clouds
304,Novoilinsk,RU,51.6829,108.7143,56.37,82,54,2.62,broken clouds
305,Nioro,GM,13.35,-15.75,81.9,78,94,8.81,overcast clouds
306,Zhigalovo,RU,54.8097,105.1578,58.64,87,96,1.1,overcast clouds
307,Beyneu,KZ,45.3167,55.2,93.49,12,1,8.01,clear sky
308,Fuerte Olimpo,PY,-21.0415,-57.8738,75.61,32,99,3.49,overcast clouds
309,Kodinar,IN,20.7903,70.7031,81.1,85,99,18.03,overcast clouds
310,Norman Wells,CA,65.282,-126.8329,71.64,49,1,5.75,clear sky
311,Grand-Santi,GF,4.25,-54.3833,89.29,51,29,4.47,scattered clouds
312,Arzakan,AM,40.45,44.6065,71.38,83,89,8.32,overcast clouds
313,Kawalu,ID,-7.3817,108.2082,70.97,97,96,1.28,overcast clouds
314,Eyl,SO,7.9803,49.8164,86.36,50,97,26.91,overcast clouds
315,Mulanje,MW,-16.0316,35.5,61.41,69,50,5.06,scattered clouds
316,Okakarara,NA,-20.5833,17.4333,57.96,29,0,6.8,clear sky
317,Honningsvag,NO,70.9821,25.9704,49.53,93,75,14.97,light rain
318,Port Hedland,AU,-20.3167,118.5667,60.85,55,0,11.5,clear sky
319,Havre-Saint-Pierre,CA,50.2334,-63.5986,62.96,77,1,19.57,clear sky
320,Quatre Cocos,MU,-20.2078,57.7625,71.71,76,49,18.1,light rain
321,Vila,PT,42.0304,-8.1588,62.74,91,94,4.68,overcast clouds
322,Kavaratti,IN,10.5669,72.642,82.38,77,88,14.81,overcast clouds
323,Maridi,SS,4.9158,29.4742,67.19,98,77,3.71,broken clouds
324,Karratha,AU,-20.7377,116.8463,63.1,38,0,13.67,clear sky
325,Nushki,PK,29.5542,66.0215,85.41,11,8,1.57,clear sky
326,Cidreira,BR,-30.1811,-50.2056,60.51,72,10,8.39,clear sky
327,Chau Doc,VN,10.7,105.1167,79.7,81,95,11.59,overcast clouds
328,Yerbogachen,RU,61.2767,108.0108,59.9,59,72,5.77,broken clouds
329,Vila Velha,BR,-20.3297,-40.2925,72.97,62,40,11.5,scattered clouds
330,Port Keats,AU,-14.25,129.55,74.12,86,98,1.66,overcast clouds
331,Nemuro,JP,43.3236,145.575,64.9,99,100,11.23,overcast clouds
332,Kirensk,RU,57.7853,108.1119,55.72,55,100,5.3,overcast clouds
333,Bac Lieu,VN,9.285,105.7244,79.61,87,63,9.48,broken clouds
334,Petropavlovsk-Kamchatskiy,RU,53.0452,158.6483,48.79,100,23,4.47,fog
335,Mangrol,IN,21.1167,70.1167,81.54,83,100,19.86,overcast clouds
336,Port Macquarie,AU,-31.4333,152.9167,58.89,76,35,11.92,scattered clouds
337,Nipawin,CA,53.3668,-104.0009,80.64,36,1,3.44,clear sky
338,Namibe,AO,-15.1961,12.1522,69.93,83,0,10.38,clear sky
339,Oriximina,BR,-1.7656,-55.8661,84.04,62,93,1.7,overcast clouds
340,Zyryanka,RU,65.75,150.85,40.98,84,100,9.04,overcast clouds
341,Camuy,PR,18.4838,-66.8449,89.44,65,8,13.0,clear sky
342,Mount Gambier,AU,-37.8333,140.7667,42.71,93,39,8.05,scattered clouds
343,Chicama,PE,-7.8447,-79.1469,64.94,58,28,10.56,scattered clouds
344,Shingu,JP,33.7333,135.9833,79.92,90,70,2.95,broken clouds
345,Taksimo,RU,56.3444,114.8794,53.71,94,100,2.48,light rain
346,Manta,EC,-0.95,-80.7333,83.98,61,20,8.05,few clouds
347,Balkhash,KZ,46.844,74.9804,79.97,32,6,8.46,clear sky
348,Huinan,CN,42.6225,126.2614,70.81,96,100,2.75,light rain
349,Atambua,ID,-9.1061,124.8925,71.19,85,73,5.17,broken clouds
350,Ballina,AU,-28.8667,153.5667,60.98,88,9,4.61,clear sky
351,Igaci,BR,-9.5369,-36.6336,74.93,67,62,16.24,broken clouds
352,Kiama,AU,-34.6833,150.8667,45.88,90,28,4.43,scattered clouds
353,Tynda,RU,55.1667,124.7167,51.8,99,100,2.08,light rain
354,Novikovo,RU,51.1537,37.8879,77.68,46,12,6.13,few clouds
355,Saskylakh,RU,71.9167,114.0833,66.51,46,0,6.67,clear sky
356,Klaksvik,FO,62.2266,-6.589,49.12,78,70,13.27,broken clouds
357,Mason City,US,43.1536,-93.201,79.36,50,1,12.66,clear sky
358,Tortoli,IT,39.9256,9.6572,85.98,61,0,13.8,clear sky
359,Itarema,BR,-2.9248,-39.9167,85.66,55,82,17.0,broken clouds
360,Sobolevo,RU,54.4299,31.8996,68.5,79,83,3.83,broken clouds
361,Tasiilaq,GL,65.6145,-37.6368,57.36,80,7,5.75,clear sky
362,Evanston,US,42.0411,-87.6901,79.95,59,40,1.99,haze
363,Husavik,IS,66.0449,-17.3389,58.91,66,97,5.12,overcast clouds
364,Shakhunya,RU,57.6758,46.6114,64.87,68,79,6.24,broken clouds
365,Rocha,UY,-34.4833,-54.3333,56.75,67,1,6.08,clear sky
366,Coolum Beach,AU,-26.5333,153.1,62.11,96,17,7.2,few clouds
367,Changde,CN,29.0464,111.6783,81.59,74,0,2.35,light rain
368,Aksarka,RU,66.5606,67.7975,56.05,95,100,9.82,overcast clouds
369,Ca Mau,VN,9.1769,105.15,78.35,90,88,4.94,overcast clouds
370,Assiniboia,CA,49.6334,-105.9845,84.11,21,3,8.05,clear sky
371,Port Augusta,AU,-32.5,137.7667,51.94,57,0,12.19,clear sky
372,Kodiak,US,57.79,-152.4072,53.11,94,90,6.91,mist
373,Sisimiut,GL,66.9395,-53.6735,58.51,54,1,7.67,clear sky
374,Bakel,SN,14.905,-12.4568,90.36,55,84,11.32,broken clouds
375,Padang,ID,-0.9492,100.3543,75.56,89,93,2.77,moderate rain
376,Ucluelet,CA,48.9329,-125.5528,55.71,81,33,3.58,scattered clouds
377,Rantoul,US,40.3084,-88.1559,78.98,72,40,11.5,scattered clouds
378,Taoudenni,ML,22.6783,-3.9836,110.08,14,29,15.99,scattered clouds
379,Pemangkat,ID,1.1667,108.9667,79.66,84,80,8.28,broken clouds
380,Deer Lake,CA,49.1667,-57.4316,69.66,56,75,18.41,broken clouds
381,Sunel,IN,24.3667,75.9667,75.87,87,100,15.37,moderate rain
382,Escarcega,MX,18.6089,-90.7454,96.91,35,82,5.14,broken clouds
383,Poya,NC,-21.35,165.15,61.21,67,49,4.59,scattered clouds
384,Lata,PT,40.1629,-8.3327,73.35,70,96,6.51,overcast clouds
385,Terra Santa,BR,-2.1042,-56.4869,93.11,41,82,3.69,broken clouds
386,Camacha,PT,33.0833,-16.3333,72.36,64,20,16.11,few clouds
387,Biltine,TD,14.5333,20.9167,84.33,51,63,8.5,broken clouds
388,Narsaq,GL,60.9167,-46.05,59.22,71,100,3.78,light rain
389,Najran,SA,17.4924,44.1277,93.85,23,98,6.76,overcast clouds
390,Liwale,TZ,-9.7667,37.9333,71.83,58,93,4.47,light rain
391,Nanortalik,GL,60.1432,-45.2371,53.1,68,98,18.95,overcast clouds
392,Portland,US,45.5234,-122.6762,78.94,65,40,1.01,scattered clouds
393,Simi,SL,9.5667,-12.35,74.8,96,96,6.04,moderate rain
394,Batyrevo,RU,55.0675,47.6111,69.1,60,95,2.57,overcast clouds
395,Okotoks,CA,50.7289,-113.9828,85.71,18,74,16.35,broken clouds
396,Ternate,ID,0.8,127.4,81.16,81,25,6.29,scattered clouds
397,Fairbanks,US,64.8378,-147.7164,67.08,74,90,6.91,overcast clouds
398,Thongwa,MM,16.7619,96.5278,78.96,93,100,6.78,overcast clouds
399,Menongue,AO,-14.6585,17.691,62.42,28,0,5.35,clear sky
400,Tukrah,LY,32.5341,20.5791,85.12,58,0,11.05,clear sky
401,Mbini,GQ,1.574,9.6134,80.44,80,90,10.51,overcast clouds
402,Pangian,PH,6.4628,125.5453,78.35,88,93,8.34,overcast clouds
403,Port Hardy,CA,50.6996,-127.4199,60.98,94,90,3.44,mist
404,Mikhaylovka,RU,50.06,43.2379,79.86,51,79,8.25,broken clouds
405,San Vicente De Canete,PE,-13.0751,-76.3835,68.09,70,43,6.93,scattered clouds
406,Lagoa,PT,39.05,-27.9833,72.14,93,21,17.29,few clouds
407,Grand Gaube,MU,-20.0064,57.6608,72.0,77,28,7.0,light rain
408,El Carrizo,MX,24.0261,-106.8814,91.08,67,83,5.01,broken clouds
409,Twin Falls,US,42.3505,-114.6445,77.34,53,1,4.61,clear sky
410,Erzin,TR,36.9559,36.2,86.52,74,0,3.6,clear sky
411,Mariager,DK,56.6498,9.9752,64.42,87,52,15.75,broken clouds
412,Katsina,NG,12.9894,7.6006,86.5,53,99,7.74,overcast clouds
413,Komsomolskiy,UZ,40.4272,71.7189,84.92,26,88,20.71,overcast clouds
414,Verkh-Usugli,RU,52.7,115.1667,49.17,84,100,2.3,overcast clouds
415,San Francisco,US,37.7749,-122.4194,78.76,80,40,3.0,scattered clouds
416,Roma,US,43.2128,-75.4557,72.52,89,90,0.0,moderate rain
417,Ilhabela,BR,-23.7781,-45.3581,67.03,69,94,8.34,overcast clouds
418,Port Shepstone,ZA,-30.7414,30.455,67.82,43,11,4.68,few clouds
419,Beira,MZ,-19.8436,34.8389,66.29,88,0,5.75,clear sky
420,Alenquer,BR,-1.9417,-54.7383,84.54,47,94,6.13,overcast clouds
421,Filingue,NE,14.3521,3.3168,93.97,39,73,10.27,broken clouds
422,Pampierstad,ZA,-27.7832,24.6877,54.25,29,22,6.62,few clouds
423,Dubrovnik,HR,42.6481,18.0922,91.04,29,0,5.75,clear sky
424,Honiara,SB,-9.4333,159.95,75.42,87,100,4.74,overcast clouds
425,Maymyo,MM,22.0333,96.4667,67.39,96,97,3.09,overcast clouds
426,Wad Madani,SD,14.4012,33.5199,81.3,64,97,10.87,overcast clouds
427,Dossor,KZ,47.5272,52.9811,91.67,13,37,5.3,scattered clouds
428,Beringovskiy,RU,63.05,179.3167,45.16,76,70,7.76,broken clouds
429,Creston,US,41.0586,-94.3614,76.71,64,1,11.5,clear sky
430,Kapoeta,SS,4.7717,33.5903,81.41,50,93,6.29,overcast clouds
431,Bandarbeyla,SO,9.4942,50.8122,78.73,76,49,27.87,scattered clouds
432,Kalanguy,RU,51.0167,116.5167,52.66,76,59,2.86,broken clouds
433,Victor Harbor,AU,-35.5667,138.6167,53.19,68,5,12.15,clear sky
434,Novo Aripuana,BR,-5.1206,-60.3797,97.12,22,28,5.06,scattered clouds
435,Lavrentiya,RU,65.5833,-171.0,40.05,90,100,10.49,overcast clouds
436,Jhalawar,IN,24.6,76.15,76.28,90,100,13.8,heavy intensity rain
437,Champerico,GT,14.3,-91.9167,93.29,72,98,5.44,overcast clouds
438,Salalah,OM,17.0151,54.0924,77.09,100,90,6.91,overcast clouds
439,Polis,CY,35.0367,32.4264,84.02,66,0,3.67,clear sky
440,Tilichiki,RU,60.4667,166.1,46.24,70,93,3.56,overcast clouds
441,Alyangula,AU,-13.8483,136.4192,62.47,100,90,0.0,mist
442,Illapel,CL,-31.6308,-71.1653,84.79,11,0,5.3,clear sky
443,Ila,NO,63.4305,10.3705,58.5,68,73,1.01,broken clouds
444,Belmonte,BR,-15.8631,-38.8828,73.4,77,92,15.17,overcast clouds
445,Porgera,PG,-5.4667,143.2,40.01,99,76,1.39,broken clouds
446,Montecristo,CO,8.2971,-74.4733,93.52,54,31,3.13,scattered clouds
447,Maneadero,MX,31.7167,-116.5667,91.18,41,0,9.17,clear sky
448,Campbell River,CA,50.0163,-125.2446,73.6,56,40,4.61,scattered clouds
449,Severo-Kurilsk,RU,50.6789,156.125,51.28,80,0,16.33,clear sky
450,Edd,ER,13.9297,41.6925,90.55,66,43,2.95,scattered clouds
451,Torbay,CA,47.6666,-52.7314,72.88,61,20,23.02,few clouds
452,Tolaga Bay,NZ,-38.3667,178.3,47.7,86,59,8.84,broken clouds
453,Sao Raimundo Das Mangabeiras,BR,-7.0219,-45.4811,93.83,27,51,11.34,broken clouds
454,Touros,BR,-5.1989,-35.4608,86.9,61,41,22.39,scattered clouds
455,Matara,LK,5.9485,80.5353,79.11,86,100,10.09,overcast clouds
456,Berlevag,NO,70.8578,29.0864,50.0,96,100,8.66,overcast clouds
457,Nam Som,TH,17.7704,102.1895,78.3,80,100,3.94,overcast clouds
458,Rudbar,AF,30.15,62.6,90.64,11,1,14.14,clear sky
459,Buraydah,SA,26.326,43.975,100.85,9,17,8.39,few clouds
460,Waterloo,CA,43.4668,-80.5164,68.72,81,90,5.99,overcast clouds
461,Nadym,RU,65.5333,72.5167,60.57,69,100,12.41,overcast clouds
462,Omsukchan,RU,62.5333,155.8,33.82,99,100,7.02,light rain
463,Vila Franca Do Campo,PT,37.7167,-25.4333,75.61,77,5,10.16,clear sky
464,Ljungby,SE,56.8332,13.9408,63.01,65,71,10.13,broken clouds
465,Lismore,AU,-28.8135,153.2773,60.89,88,9,3.44,clear sky
466,Erenhot,CN,43.6475,111.9767,67.14,46,62,10.85,broken clouds
467,Muscat,OM,23.6139,58.5922,96.82,44,82,2.95,broken clouds
468,Kahului,US,20.8947,-156.47,76.26,75,20,13.8,few clouds
469,Xining,CN,36.6167,101.7667,61.11,59,25,3.33,scattered clouds
470,Harwich,GB,51.9419,1.2844,62.62,83,89,4.0,overcast clouds
471,Klang,MY,3.0333,101.45,80.74,89,20,2.3,few clouds
472,Brigantine,US,39.4101,-74.3646,78.01,63,40,12.66,scattered clouds
473,Cayenne,GF,4.9333,-52.3333,87.84,76,40,4.0,scattered clouds
474,Madison,US,34.7334,-86.5667,82.09,84,40,1.01,scattered clouds
475,Ambo,PE,-10.1308,-76.2047,65.95,61,84,9.44,broken clouds
476,Namatanai,PG,-3.6667,152.4333,77.99,84,31,5.77,light rain
477,Lerwick,GB,60.1545,-1.1494,51.8,76,96,16.35,overcast clouds
478,Abu Samrah,SY,35.3029,37.1841,88.56,31,0,14.14,clear sky
479,Lagos,NG,6.5833,3.75,82.72,74,90,7.87,overcast clouds
480,Osa,RU,57.2829,55.4567,64.02,76,57,5.28,broken clouds
481,Puerto Madryn,AR,-42.7692,-65.0385,67.23,26,16,17.76,few clouds
482,Khuzhir,RU,53.1939,107.3397,57.61,80,69,4.05,broken clouds
483,Porto Belo,BR,-27.1578,-48.5531,69.1,73,100,5.28,overcast clouds
484,Cheney,US,47.4874,-117.5758,82.99,51,90,5.75,smoke
485,Dudinka,RU,69.4058,86.1778,49.32,96,83,8.46,broken clouds
486,Samandag,TR,36.0842,35.9771,84.72,80,0,7.14,clear sky
487,Hornepayne,CA,49.2138,-84.7705,63.25,64,88,8.75,overcast clouds
488,Khon Buri,TH,14.5254,102.2459,79.21,71,91,13.56,overcast clouds
489,Westport,US,41.1415,-73.3579,78.57,56,1,1.01,clear sky
490,Quimper,FR,48.0,-4.1,65.08,72,0,9.22,clear sky
491,Minas Novas,BR,-17.2186,-42.5903,75.63,33,93,7.58,overcast clouds
492,San Quintin,MX,30.4833,-115.95,78.35,61,2,11.79,clear sky
493,Inirida,CO,3.8653,-67.9239,76.33,94,97,4.07,overcast clouds
494,Zakharovo,RU,54.366,39.2792,73.02,59,76,7.09,broken clouds
495,Northam,GB,51.0333,-4.2167,67.71,83,50,10.89,scattered clouds
496,Plettenberg Bay,ZA,-34.0527,23.3716,56.55,88,60,10.2,broken clouds
497,Salani,IN,29.957,79.7127,71.82,94,99,0.6,moderate rain
498,Anadyr,RU,64.75,177.4833,43.3,86,20,1.99,few clouds
499,Naze,JP,28.3667,129.4833,78.84,87,77,12.66,broken clouds
500,Davila,PH,18.4726,120.5763,80.76,88,100,23.58,overcast clouds
501,Verkhnevilyuysk,RU,63.4453,120.3167,61.45,55,96,3.27,overcast clouds
502,Kem,RU,64.9555,34.5793,55.06,95,89,6.08,overcast clouds
503,Mezen,RU,65.8522,44.24,49.82,76,7,5.21,clear sky
504,Hastings,GB,50.8552,0.5729,66.9,91,71,6.46,moderate rain
505,Muros,ES,42.7762,-9.0603,66.99,92,96,1.34,overcast clouds
506,Auki,SB,-8.7676,160.7034,75.22,87,100,8.75,overcast clouds
507,Tessalit,ML,20.1986,1.0114,96.28,27,78,14.76,broken clouds
508,Yermekeyevo,RU,54.0761,53.6712,70.79,51,96,5.17,overcast clouds
509,Kavieng,PG,-2.5744,150.7967,80.96,75,10,8.16,clear sky
510,Praia Da Vitoria,PT,38.7333,-27.0667,78.76,94,75,18.57,light intensity drizzle
511,Tulle,FR,45.3333,1.8333,62.55,94,57,2.84,broken clouds
512,Inhambane,MZ,-23.865,35.3833,65.46,73,0,5.55,clear sky
513,Labuhan,ID,-6.8844,112.2051,77.63,75,8,9.13,clear sky
514,Kholm,RU,59.2667,32.85,64.29,69,29,6.29,scattered clouds
515,Zhanaozen,KZ,43.3,52.8,89.04,18,3,7.76,clear sky
516,Soc Trang,VN,9.6033,105.98,78.76,90,48,6.98,scattered clouds
517,Ambilobe,MG,-13.2,49.05,70.66,77,0,4.0,clear sky
518,Urengoy,RU,65.9667,78.3667,56.77,63,99,9.15,overcast clouds
519,Pauini,BR,-7.7136,-66.9764,94.53,23,0,4.81,clear sky
520,Banda Aceh,ID,5.5577,95.3222,79.32,76,99,15.99,overcast clouds
521,Carballo,ES,43.213,-8.691,66.54,92,81,4.94,light rain
522,Shubarshi,KZ,48.5872,57.1869,84.13,18,3,7.56,clear sky
523,Craig,US,40.5153,-107.5464,79.18,41,1,8.05,clear sky
524,Jinchang,CN,38.4953,102.1739,75.76,37,87,6.89,overcast clouds
525,Marquette,US,46.5333,-87.6335,66.83,76,10,10.11,clear sky
526,Sungairaya,ID,0.7,108.9,79.27,83,93,6.38,overcast clouds
527,Hof,DE,50.3167,11.9167,65.52,68,20,8.05,few clouds
528,Bilma,NE,18.6853,12.9164,100.69,9,4,2.73,clear sky
529,Kudat,MY,6.8837,116.8477,80.53,89,20,3.44,few clouds
530,Eregli,TR,37.5133,34.0467,75.97,21,0,5.35,clear sky
531,Nicoya,CR,10.1483,-85.452,89.15,72,49,5.95,scattered clouds
532,Dongsheng,CN,39.8161,109.9776,63.57,41,65,11.7,broken clouds
533,Tashtagol,RU,52.7657,87.8894,55.31,84,16,2.42,few clouds
534,Deputatskiy,RU,69.3,139.9,35.82,90,12,3.18,few clouds
535,Batemans Bay,AU,-35.7167,150.1833,40.98,94,16,3.62,few clouds
536,Uglovskoye,RU,51.3557,80.1942,71.08,45,20,4.12,few clouds
537,Staraya Poltavka,RU,50.4772,46.4814,83.28,39,13,11.36,few clouds
538,Cagliari,IT,39.245,9.0912,86.14,50,0,13.8,clear sky
539,Algiers,DZ,36.7525,3.042,78.62,65,40,9.22,scattered clouds
540,Atherton,GB,53.5237,-2.4935,66.47,67,78,6.46,broken clouds
541,Olutanga,PH,7.3106,122.8464,83.14,76,86,5.97,overcast clouds
542,Zhangye,CN,38.9342,100.4517,75.0,43,99,5.7,overcast clouds
543,Noyabrsk,RU,63.1994,75.4507,58.82,66,88,11.16,overcast clouds
544,Leshukonskoye,RU,64.8989,45.7622,56.34,83,24,1.88,few clouds
545,Ulladulla,AU,-35.35,150.4667,45.88,92,6,3.8,clear sky
546,Rosarito,MX,32.3333,-117.0333,91.67,47,0,12.3,clear sky
547,Anaconda,US,46.1285,-112.9423,85.96,34,85,6.6,overcast clouds
548,Tunduma,TZ,-9.3,32.7667,58.68,62,78,10.58,broken clouds
549,Paka,MY,4.6374,103.4368,76.98,100,86,0.0,heavy intensity rain
550,Vendome,FR,47.8,1.0667,73.02,56,73,7.67,broken clouds
551,Esil,KZ,51.9556,66.4042,76.28,51,26,7.31,scattered clouds
552,Talnakh,RU,69.4865,88.3972,50.95,94,88,5.82,overcast clouds
553,Roblin,CA,51.23,-101.3565,80.94,25,0,6.24,clear sky
554,Guozhen,CN,34.3659,107.359,81.28,43,4,3.02,clear sky
555,Caramay,PH,10.1815,119.236,79.86,83,75,5.57,broken clouds
556,Halifax,CA,44.6453,-63.5724,77.41,59,23,3.0,few clouds
557,Santa Maria,BR,-29.6842,-53.8069,65.5,55,0,3.44,clear sky
558,Xiongzhou,CN,25.1167,114.3,79.48,80,96,0.96,overcast clouds
559,Kualakapuas,ID,-3.0091,114.3876,75.36,93,60,1.57,broken clouds
560,Emerald,AU,-23.5333,148.1667,59.14,94,1,4.61,clear sky
561,Faya,SA,18.3851,42.4509,68.52,70,95,4.7,overcast clouds
562,Santa Maria Del Rio,MX,21.8,-100.75,72.84,40,24,6.33,few clouds
563,Krasnoselkup,RU,65.7,82.4667,55.24,72,99,7.56,overcast clouds
564,Kemijarvi,FI,66.7131,27.4306,58.17,86,100,4.36,light rain
565,Toccoa,US,34.5773,-83.3324,89.19,58,1,5.75,clear sky
566,Raudeberg,NO,61.9875,5.1352,56.07,73,66,21.07,broken clouds
567,Dali,CN,25.7,100.1833,63.54,81,23,1.21,few clouds
568,Ripky,UA,51.801,31.0838,71.17,83,71,5.55,broken clouds
569,Megion,RU,61.0296,76.1136,60.82,74,99,11.41,overcast clouds
570,Hovd,MN,48.0056,91.6419,55.83,65,41,4.32,scattered clouds
571,Vizinga,RU,61.0749,50.1031,56.79,90,51,4.38,broken clouds
572,Gao,ML,16.6362,1.637,96.78,31,74,6.49,broken clouds
573,San Ramon,US,37.7799,-121.978,77.22,56,1,1.01,clear sky
574,Paamiut,GL,61.994,-49.6678,48.61,85,100,3.76,light rain
575,Balaipungut,ID,1.05,101.2833,74.1,96,88,2.3,overcast clouds
576,Waipawa,NZ,-41.4122,175.5153,42.3,91,99,2.98,overcast clouds
577,Bundoran,IE,54.4778,-8.2809,61.65,65,68,11.56,broken clouds
578,Bonavista,CA,48.6499,-53.1147,71.6,66,68,17.69,broken clouds
579,Canon City,US,38.441,-105.2424,69.03,83,90,0.0,overcast clouds
580,Mortka,RU,59.3322,66.0214,58.91,96,39,5.23,light rain
581,Jimma,ET,7.6667,36.8333,60.35,98,72,1.95,moderate rain
582,Aasiaat,GL,68.7098,-52.8699,41.61,84,21,10.6,few clouds
583,Peleduy,RU,59.6289,112.7406,58.05,56,100,4.52,overcast clouds
584,Cascais,PT,38.6979,-9.4215,75.06,72,40,7.0,scattered clouds
585,Tarancon,ES,40.0085,-3.0073,79.66,24,66,10.22,broken clouds
586,La Rioja,ES,42.25,-2.5,69.04,47,89,5.79,overcast clouds
587,Vestmannaeyjar,IS,63.4427,-20.2734,52.79,100,90,9.22,mist
588,Baker City,US,44.7749,-117.8344,65.91,94,90,0.0,mist
589,Homer,US,59.6425,-151.5483,67.77,83,75,3.44,broken clouds
590,Rairangpur,IN,22.2676,86.1751,78.24,90,99,6.17,overcast clouds
591,Nome,US,64.5011,-165.4064,48.27,87,90,8.05,light rain
592,Jatai,BR,-17.8814,-51.7144,84.02,20,11,8.81,few clouds
593,Vallenar,CL,-28.5708,-70.7581,85.82,8,0,4.47,clear sky
594,Maltahohe,NA,-24.8333,16.9833,58.64,21,0,6.53,clear sky
595,Baykit,RU,61.67,96.37,60.4,85,100,2.84,overcast clouds
596,Loding,NO,67.3,14.75,51.55,77,75,1.99,broken clouds
597,Mayumba,GA,-3.432,10.6554,73.44,87,90,6.78,overcast clouds
598,Igarka,RU,67.4667,86.5833,51.39,99,85,3.74,overcast clouds
599,Roebourne,AU,-20.7833,117.1333,63.37,37,0,14.12,clear sky
600,Koumac,NC,-20.5667,164.2833,62.87,66,22,7.96,few clouds
601,Antalaha,MG,-14.9003,50.2788,67.69,91,100,8.61,light rain
602,Tocopilla,CL,-22.092,-70.1979,66.69,64,53,6.55,broken clouds
603,Port-De-Bouc,FR,43.4,4.9833,82.96,34,0,18.41,clear sky
604,Sovetskiy,RU,61.3614,63.5842,58.57,93,73,5.48,broken clouds
605,Pitelino,RU,54.5777,41.8145,71.2,54,90,6.76,overcast clouds
606,Pierre,US,44.3683,-100.351,86.99,38,1,1.99,haze
607,Thunder Bay,CA,48.4001,-89.3168,68.56,54,75,8.05,broken clouds
608,Chemal,RU,51.4111,86.005,56.35,85,7,4.56,clear sky
609,Sangar,RU,63.9242,127.4739,62.82,58,35,1.97,scattered clouds
610,Martapura,ID,-3.4167,114.85,75.29,100,48,1.14,scattered clouds
611,Funadhoo,MV,6.15,73.2667,82.13,78,100,13.82,overcast clouds
612,Putnok,HU,48.3,20.4333,70.79,89,63,2.17,very heavy rain
613,Tyukhtet,RU,56.5389,89.3011,58.12,79,68,3.62,broken clouds
614,Manado,ID,1.487,124.8455,75.97,94,20,1.14,few clouds
615,Mangai,CD,-4.05,19.5333,77.54,24,97,2.42,overcast clouds
616,Rabo De Peixe,PT,37.8,-25.5833,74.71,83,75,19.57,broken clouds
617,Oranmore,IE,53.2683,-8.92,64.36,64,69,9.4,broken clouds
618,San Carlos De Bariloche,AR,-41.1456,-71.3082,44.35,53,40,3.44,scattered clouds
619,Anloga,GH,5.7947,0.8973,82.62,81,76,13.38,broken clouds
620,Aksu,CN,41.1231,80.2644,80.83,15,100,3.69,overcast clouds
621,Shizunai,JP,42.3339,142.3669,73.24,93,100,7.07,overcast clouds
622,Wilmington,US,34.2257,-77.9447,92.98,73,75,8.05,broken clouds
623,Takaka,NZ,-40.85,172.8,51.98,91,91,1.48,overcast clouds
624,Svobodnyy,RU,51.4,128.1333,55.44,94,99,7.52,overcast clouds
625,Sakakah,SA,29.9697,40.2064,99.97,11,0,11.79,clear sky
626,Bari,IT,41.1177,16.8512,100.35,27,0,3.0,clear sky
627,Santa Cruz,BO,-17.8,-63.1667,75.25,20,75,20.71,broken clouds
628,Hokitika,NZ,-42.7167,170.9667,49.48,91,98,2.35,overcast clouds
629,La Asuncion,VE,11.0333,-63.8628,85.73,74,3,14.97,clear sky
630,Keti Bandar,PK,24.1447,67.4497,82.02,80,99,20.62,overcast clouds
631,Gravdal,NO,68.1214,13.5031,49.89,71,40,10.36,scattered clouds
632,Laharpur,IN,27.7167,80.9,80.4,87,82,8.75,broken clouds
633,Hvide Sande,DK,56.0045,8.1294,63.18,70,20,20.83,few clouds
634,Port-Cartier,CA,50.0334,-66.8654,68.22,54,95,11.25,overcast clouds
635,Ozinki,RU,51.1786,49.6769,81.45,40,33,8.46,scattered clouds
636,Kisangani,CD,0.5167,25.2,74.35,82,99,3.06,overcast clouds
637,Ardabil,IR,38.2498,48.2933,65.75,68,75,9.22,broken clouds
638,Reyes,BO,-14.3167,-67.3833,80.37,38,83,6.64,broken clouds
639,La Ronge,CA,55.1001,-105.2842,80.85,36,20,4.61,smoke
640,Kirakira,SB,-10.4544,161.9205,73.56,85,100,7.7,overcast clouds
641,Luganville,VU,-15.5333,167.1667,69.28,67,70,6.26,broken clouds
642,Sutton,GB,51.35,-0.2,67.35,79,40,1.99,scattered clouds
643,Chimbote,PE,-9.0853,-78.5783,69.76,69,52,11.1,broken clouds
644,Serebryansk,KZ,49.6925,83.2892,54.95,57,0,1.99,clear sky
645,Kahta,TR,37.7855,38.6237,90.77,24,57,8.28,broken clouds
646,Mattru,SL,7.6244,-11.8332,74.14,93,100,4.88,light rain
647,Karhal,IN,27.0003,78.9414,81.81,81,91,12.3,overcast clouds
648,Ribeira Brava,PT,32.65,-17.0667,77.72,74,26,4.12,scattered clouds
649,Guapiles,CR,10.2159,-83.7866,93.47,90,95,1.41,overcast clouds
650,Lesnoye,RU,58.2841,35.5158,63.54,94,39,7.47,scattered clouds
651,Amuntai,ID,-2.4177,115.2494,73.18,97,95,2.13,overcast clouds
652,Lillehammer,NO,61.1146,10.4674,58.15,62,91,7.43,overcast clouds
653,Xuddur,SO,4.1213,43.8894,75.07,70,94,19.62,overcast clouds
654,Sapouy,BF,11.5544,-1.7736,80.51,71,77,5.91,broken clouds
655,Mildura,AU,-34.2,142.15,44.56,87,40,8.05,scattered clouds
656,Qaqortoq,GL,60.7167,-46.0333,59.5,81,100,4.12,light rain
657,Havoysund,NO,70.9963,24.6622,47.28,90,100,14.05,overcast clouds
658,Marrakesh,MA,31.6315,-8.0083,93.27,22,20,8.05,few clouds
659,Wapakoneta,US,40.5678,-84.1936,76.78,66,90,5.01,overcast clouds
660,Kainantu,PG,-6.2887,145.8655,58.08,98,89,1.74,overcast clouds
661,Saint-Joseph,RE,-21.3667,55.6167,66.58,73,36,12.26,scattered clouds
662,Siteki,SZ,-26.45,31.95,60.53,39,44,3.74,scattered clouds
663,Dasoguz,TM,41.8363,59.9666,82.35,34,0,6.91,clear sky
664,Pangody,RU,65.85,74.4859,59.92,65,100,12.95,overcast clouds
665,Yola,NG,9.2,12.4833,79.3,73,98,4.47,overcast clouds
666,Pulivendla,IN,14.4167,78.2333,81.86,58,97,20.89,overcast clouds
667,Walvis Bay,NA,-22.9575,14.5053,83.35,14,0,5.75,clear sky
668,Maloy,NO,61.9353,5.1136,64.24,73,56,21.97,broken clouds
669,Mushie,CD,-3.0167,16.9,86.74,30,72,3.67,broken clouds
670,Marzuq,YE,14.4,46.4667,82.38,56,72,11.41,broken clouds
671,Hami,CN,42.8,93.45,68.65,46,14,11.83,few clouds
672,Tabou,CI,4.423,-7.3528,77.16,78,95,7.92,overcast clouds
673,Yichang,CN,30.7144,111.2847,82.04,75,0,2.91,light rain
674,Cedar City,US,37.6775,-113.0619,74.39,56,1,3.44,clear sky
675,Movileni,RO,44.3667,24.65,95.36,24,0,10.02,clear sky
676,Sao Felix Do Xingu,BR,-6.6447,-51.995,98.15,21,81,6.76,broken clouds
677,Rio Gallegos,AR,-51.6226,-69.2181,51.85,58,0,13.8,clear sky
678,Terrace,CA,54.5163,-128.6035,67.91,77,75,5.75,broken clouds
679,Changli,CN,39.7042,119.1506,69.64,91,31,6.89,scattered clouds
680,Biak,ID,-0.9131,122.8766,75.31,87,89,6.76,overcast clouds
681,Damara,CF,4.9608,18.7035,85.42,90,99,2.04,overcast clouds
